"Interval"|"ms"|0|0|1,"Utc"|"ms"|0|0|1,"Battery"|"Volts"|0.0|50.0|1,"AccelX"|"G"|0.0|0.0|25,"AccelY"|"G"|0.0|0.0|25,"AccelZ"|"G"|0.0|0.0|25,"Yaw"|"Deg/Sec"|0.0|0.0|25,"Pitch"|"Deg/Sec"|0.0|0.0|25,"Roll"|"Deg/Sec"|0.0|0.0|25,"Latitude"|"Degrees"|0.0|0.0|50,"Longitude"|"Degrees"|0.0|0.0|50,"Speed"|"MPH"|0.0|0.0|50,"Distance"|"Miles"|0.0|0.0|50,"GPSSats"|""|0|10|50,"LapCount"|""|0|0|50,"LapTime"|"Min"|0.0|0.0|1,"Sector"|""|0.0|0.0|50,"SectorTime"|"Min"|0.0|0.0|1,"PredTime"|"Min"|0.0|0.0|1
610409,1423448353346,,,,,,,,47.810158,-122.3423,22.73,0.49,10,2,,2,,
610429,1423448353394,,0.13,0.51,0.87,51.1,70.3,55.5,47.810158,-122.342285,22.91,0.491,10,2,,2,,
610449,1423448353414,,,,,,,,47.810158,-122.342285,22.7,0.491,10,2,,2,,
610469,1423448353434,,0.12,0.5,0.89,50.2,71.9,59.8,47.810158,-122.342285,22.69,0.491,10,2,,2,,
610489,1423448353454,,,,,,,,47.810158,-122.342285,23.56,0.491,10,2,,2,,
610509,1423448353474,,0.11,0.49,0.87,54.1,62.6,58.3,47.810158,-122.342285,22.59,0.491,10,2,,2,,
610529,1423448353494,,,,,,,,47.810158,-122.34227,22.63,0.492,10,2,,2,,
610549,1423448353515,,0.13,0.5,0.83,54.8,60.8,55.1,47.810158,-122.34227,23.01,0.492,10,2,,2,,
610569,1423448353533,,,,,,,,47.810158,-122.34227,22.83,0.492,10,2,,2,,
610589,1423448353554,,0.13,0.49,0.83,55.4,58.2,54.1,47.810158,-122.34227,22.92,0.492,10,2,,2,,
610609,1423448353575,,,,,,,,47.810158,-122.34227,22.95,0.492,10,2,,2,,
610629,1423448353594,,0.13,0.49,0.83,56.1,56.1,53.8,47.810158,-122.342262,23.03,0.492,10,2,,2,,
610649,1423448353614,,,,,,,,47.810162,-122.342262,22.56,0.492,10,2,,2,,
610669,1423448353634,,0.14,0.48,0.82,56.7,54.4,53.5,47.810162,-122.342262,23.01,0.492,10,2,,2,,
610689,1423448353654,,,,,,,,47.810162,-122.342262,22.97,0.492,10,2,,2,,
610709,1423448353673,,0.15,0.48,0.81,57.0,53.4,52.2,47.810162,-122.342247,22.84,0.493,10,2,,2,,
610729,1423448353694,,,,,,,,47.810162,-122.342247,22.92,0.493,10,2,,2,,
610749,1423448353714,,0.15,0.48,0.83,57.1,52.3,52.0,47.810162,-122.342247,23.15,0.493,10,2,,2,,
610769,1423448353733,,,,,,,,47.810162,-122.342247,22.77,0.493,10,2,,2,,
610789,1423448353754,,0.15,0.48,0.82,57.7,51.1,52.9,47.810162,-122.342247,22.8,0.493,10,2,,2,,
610809,1423448353772,,,,,,,,47.810162,-122.342232,22.92,0.494,10,2,,2,,
610829,1423448353794,,0.15,0.48,0.82,58.8,51.2,53.4,47.810162,-122.342232,22.91,0.494,10,2,,2,,
610849,1423448353814,,,,,,,,47.810162,-122.342232,22.99,0.494,10,2,,2,,
610869,1423448353833,,0.16,0.47,0.82,59.4,52.7,56.5,47.810162,-122.342232,23.06,0.494,10,2,,2,,
610889,1423448353853,,,,,,,,47.810162,-122.342232,22.69,0.494,10,2,,2,,
610909,1423448353873,,0.16,0.46,0.81,60.5,52.8,56.6,47.810162,-122.342224,22.62,0.494,10,2,,2,,
610929,1423448353894,,,,,,,,47.810162,-122.342224,22.5,0.494,10,2,,2,,
610949,1423448353913,,0.15,0.47,0.8,61.1,51.9,56.0,47.810162,-122.342224,22.29,0.494,10,2,,2,,
610969,1423448353934,,,,,,,,47.810162,-122.342224,21.76,0.494,10,2,,2,,
610989,1423448353954,,0.15,0.46,0.79,61.6,51.8,54.3,47.810162,-122.342209,22.59,0.495,10,2,,2,,
611009,1423448353974,,,,,,,,47.810162,-122.342209,22.59,0.495,10,2,,2,,
611030,1423448353995,14.51,0.15,0.47,0.81,61.4,52.2,54.0,47.810162,-122.342209,22.74,0.495,10,2,2.6857,2,0.476,2.5684
611049,1423448354014,,,,,,,,47.810162,-122.342209,22.3,0.495,10,2,,2,,
611069,1423448354034,,0.16,0.47,0.79,61.8,51.2,56.1,47.810162,-122.342209,22.74,0.495,10,2,,2,,
611089,1423448354054,,,,,,,,47.810162,-122.342194,22.5,0.495,10,2,,2,,
611109,1423448354073,,0.15,0.48,0.81,62.2,52.1,57.6,47.810162,-122.342194,22.71,0.495,10,2,,2,,
611129,1423448354094,,,,,,,,47.810162,-122.342194,22.77,0.495,10,2,,2,,
611149,1423448354115,,0.17,0.47,0.79,62.4,51.4,59.1,47.810162,-122.342194,22.48,0.495,10,2,,2,,
611169,1423448354133,,,,,,,,47.810162,-122.342194,23.08,0.495,10,2,,2,,
611189,1423448354154,,0.16,0.48,0.75,63.4,51.9,63.4,47.810162,-122.342186,22.55,0.496,10,2,,2,,
611209,1423448354173,,,,,,,,47.810162,-122.342186,23.44,0.496,10,2,,2,,
611229,1423448354194,,0.15,0.46,0.78,64.5,54.2,68.8,47.810162,-122.342186,23.23,0.496,10,2,,2,,
611249,1423448354212,,,,,,,,47.810162,-122.342186,22.15,0.496,10,2,,2,,
611269,1423448354235,,0.17,0.47,0.81,65.0,55.2,67.3,47.810162,-122.342186,22.67,0.496,10,2,,2,,
611289,1423448354255,,,,,,,,47.810162,-122.342171,22.65,0.496,10,2,,2,,
611309,1423448354274,,0.16,0.46,0.81,64.5,54.1,65.9,47.810162,-122.342171,22.76,0.496,10,2,,2,,
611329,1423448354295,,,,,,,,47.810162,-122.342171,23.15,0.496,10,2,,2,,
611349,1423448354314,,0.17,0.46,0.81,64.7,55.1,66.5,47.810162,-122.342171,22.24,0.496,10,2,,2,,
611369,1423448354335,,,,,,,,47.810162,-122.342155,22.67,0.497,10,2,,2,,
611389,1423448354355,,0.17,0.47,0.81,64.2,54.5,66.2,47.810162,-122.342155,22.6,0.497,10,2,,2,,
611409,1423448354373,,,,,,,,47.810162,-122.342155,22.65,0.497,10,2,,2,,
611429,1423448354395,,0.16,0.46,0.8,63.6,53.6,64.9,47.810162,-122.342155,23.19,0.497,10,2,,2,,
611449,1423448354414,,,,,,,,47.810162,-122.342155,22.33,0.497,10,2,,2,,
611469,1423448354435,,0.15,0.46,0.81,63.7,53.4,66.7,47.810162,-122.342148,23.06,0.498,10,2,,2,,
611489,1423448354455,,,,,,,,47.810162,-122.342148,22.64,0.498,10,2,,2,,
611509,1423448354474,,0.16,0.46,0.8,63.4,54.1,66.5,47.810162,-122.342148,22.35,0.498,10,2,,2,,
611529,1423448354495,,,,,,,,47.810162,-122.342148,22.23,0.498,10,2,,2,,
611549,1423448354514,,0.15,0.47,0.8,63.0,54.5,65.0,47.810162,-122.342148,22.4,0.498,10,2,,2,,
611569,1423448354535,,,,,,,,47.810162,-122.342133,23.03,0.498,10,2,,2,,
611589,1423448354555,,0.14,0.47,0.81,62.6,55.0,63.2,47.810162,-122.342133,22.61,0.498,10,2,,2,,
611609,1423448354574,,,,,,,,47.810162,-122.342133,22.02,0.498,10,2,,2,,
611629,1423448354595,,0.15,0.47,0.81,62.5,54.6,62.2,47.810162,-122.342133,22.53,0.498,10,2,,2,,
611649,1423448354615,,,,,,,,47.810162,-122.342133,22.92,0.498,10,2,,2,,
611669,1423448354635,,0.14,0.47,0.83,61.8,55.5,61.0,47.810162,-122.342117,22.23,0.499,10,2,,2,,
611689,1423448354654,,,,,,,,47.810162,-122.342117,22.37,0.499,10,2,,2,,
611709,1423448354674,,0.14,0.47,0.81,61.2,54.6,59.0,47.810162,-122.342117,22.53,0.499,10,2,,2,,
611729,1423448354695,,,,,,,,47.810162,-122.342117,22.49,0.499,10,2,,2,,
611749,1423448354715,,0.13,0.47,0.8,61.0,54.8,59.1,47.810162,-122.34211,22.21,0.499,10,2,,2,,
611769,1423448354733,,,,,,,,47.810162,-122.34211,22.49,0.499,10,2,,2,,
611789,1423448354755,,0.13,0.47,0.79,61.2,54.1,59.9,47.810162,-122.34211,22.59,0.499,10,2,,2,,
611809,1423448354774,,,,,,,,47.810162,-122.34211,22.25,0.499,10,2,,2,,
611829,1423448354795,,0.14,0.48,0.81,61.4,53.5,59.3,47.810162,-122.34211,22.38,0.499,10,2,,2,,
611849,1423448354815,,,,,,,,47.810162,-122.342094,22.53,0.5,10,2,,2,,
611869,1423448354834,,0.14,0.48,0.82,61.1,54.3,58.2,47.810162,-122.342094,22.58,0.5,10,2,,2,,
611889,1423448354855,,,,,,,,47.810162,-122.342094,22.06,0.5,10,2,,2,,
611909,1423448354874,,0.12,0.47,0.84,60.8,54.7,57.8,47.810162,-122.342094,22.44,0.5,10,2,,2,,
611929,1423448354895,,,,,,,,47.810162,-122.342094,22.52,0.5,10,2,,2,,
611949,1423448354915,,0.13,0.48,0.84,60.8,54.5,56.3,47.810162,-122.342079,22.38,0.501,10,2,,2,,
611969,1423448354934,,,,,,,,47.810162,-122.342079,21.82,0.501,10,2,,2,,
611989,1423448354955,,0.14,0.47,0.81,60.9,54.4,54.4,47.810162,-122.342079,22.31,0.501,10,2,,2,,
612009,1423448354975,,,,,,,,47.810162,-122.342079,22.31,0.501,10,2,,2,,
612030,1423448354996,14.48,0.14,0.47,0.79,61.0,54.0,54.5,47.810162,-122.342079,21.97,0.501,10,2,2.6857,2,0.476,2.5714
612049,1423448355015,,,,,,,,47.810162,-122.342072,22.29,0.501,10,2,,2,,
612069,1423448355035,,0.15,0.46,0.79,61.0,54.2,55.9,47.810162,-122.342072,22.59,0.501,10,2,,2,,
612089,1423448355054,,,,,,,,47.810162,-122.342072,22.24,0.501,10,2,,2,,
612109,1423448355075,,0.15,0.47,0.8,61.6,54.7,57.7,47.810162,-122.342072,22.68,0.501,10,2,,2,,
612129,1423448355095,,,,,,,,47.810162,-122.342072,22.02,0.501,10,2,,2,,
612149,1423448355114,,0.15,0.47,0.81,62.0,54.2,56.4,47.810162,-122.342056,22.18,0.502,10,2,,2,,
612169,1423448355134,,,,,,,,47.810165,-122.342056,22.42,0.502,10,2,,2,,
612189,1423448355155,,0.15,0.47,0.82,62.4,53.1,57.4,47.810165,-122.342056,22.15,0.502,10,2,,2,,
612209,1423448355172,,,,,,,,47.810165,-122.342056,21.91,0.502,10,2,,2,,
612229,1423448355194,,0.15,0.48,0.83,62.7,54.4,59.2,47.810165,-122.342041,22.57,0.503,10,2,,2,,
612249,1423448355214,,,,,,,,47.810165,-122.342041,22.09,0.503,10,2,,2,,
612269,1423448355235,,0.15,0.48,0.82,62.6,54.9,59.7,47.810165,-122.342041,21.93,0.503,10,2,,2,,
612289,1423448355254,,,,,,,,47.810165,-122.342041,22.3,0.503,10,2,,2,,
612309,1423448355273,,0.16,0.47,0.83,62.5,56.1,59.1,47.810165,-122.342041,22.4,0.503,10,2,,2,,
612329,1423448355295,,,,,,,,47.810165,-122.342033,21.92,0.503,10,2,,2,,
612349,1423448355314,,0.16,0.46,0.83,62.6,57.5,57.5,47.810165,-122.342033,22.18,0.503,10,2,,2,,
612369,1423448355334,,,,,,,,47.810165,-122.342033,22.48,0.503,10,2,,2,,
612389,1423448355355,,0.15,0.46,0.81,62.7,57.2,58.6,47.810165,-122.342033,21.91,0.503,10,2,,2,,
612409,1423448355373,,,,,,,,47.810165,-122.342033,22.32,0.503,10,2,,2,,
612429,1423448355395,,0.15,0.46,0.81,62.7,57.3,59.4,47.810165,-122.342018,21.83,0.504,10,2,,2,,
612449,1423448355415,,,,,,,,47.810165,-122.342018,21.9,0.504,10,2,,2,,
612469,1423448355435,,0.14,0.46,0.81,62.5,56.5,58.9,47.810165,-122.342018,22.39,0.504,10,2,,2,,
612489,1423448355455,,,,,,,,47.810165,-122.342018,21.81,0.504,10,2,,2,,
612509,1423448355474,,0.14,0.46,0.8,62.7,55.8,59.2,47.810165,-122.342018,21.67,0.504,10,2,,2,,
612529,1423448355495,,,,,,,,47.810165,-122.342003,21.93,0.505,10,2,,2,,
612549,1423448355514,,0.15,0.47,0.82,62.8,55.7,59.5,47.810165,-122.342003,21.66,0.505,10,2,,2,,
612569,1423448355535,,,,,,,,47.810165,-122.342003,22.35,0.505,10,2,,2,,
612589,1423448355555,,0.15,0.47,0.82,62.7,55.9,59.4,47.810165,-122.342003,21.81,0.505,10,2,,2,,
612609,1423448355574,,,,,,,,47.810165,-122.342003,21.76,0.505,10,2,,2,,
612629,1423448355595,,0.15,0.46,0.82,62.5,54.8,58.1,47.810165,-122.341995,22.16,0.505,10,2,,2,,
612649,1423448355614,,,,,,,,47.810165,-122.341995,21.48,0.505,10,2,,2,,
612669,1423448355634,,0.16,0.46,0.81,62.9,54.0,58.6,47.810165,-122.341995,21.76,0.505,10,2,,2,,
612689,1423448355654,,,,,,,,47.810165,-122.341995,22.02,0.505,10,2,,2,,
612709,1423448355674,,0.17,0.45,0.82,63.1,52.9,60.2,47.810165,-122.341995,22.12,0.505,10,2,,2,,
612729,1423448355693,,,,,,,,47.810165,-122.34198,22.06,0.506,10,2,,2,,
612749,1423448355715,,0.16,0.45,0.8,63.0,52.5,58.5,47.810165,-122.34198,21.83,0.506,10,2,,2,,
612769,1423448355735,,,,,,,,47.810165,-122.34198,22.11,0.506,10,2,,2,,
612789,1423448355754,,0.15,0.45,0.8,63.2,51.7,59.0,47.810165,-122.34198,21.25,0.506,10,2,,2,,
612809,1423448355774,,,,,,,,47.810165,-122.34198,21.87,0.506,10,2,,2,,
612829,1423448355794,,0.15,0.44,0.79,63.4,52.4,59.8,47.810165,-122.341965,21.35,0.506,10,2,,2,,
612849,1423448355814,,,,,,,,47.810165,-122.341965,21.9,0.506,10,2,,2,,
612869,1423448355835,,0.17,0.45,0.79,63.5,52.4,61.1,47.810165,-122.341965,21.27,0.506,10,2,,2,,
612889,1423448355855,,,,,,,,47.810165,-122.341965,21.64,0.506,10,2,,2,,
612909,1423448355874,,0.15,0.45,0.79,63.4,52.1,59.4,47.810165,-122.341965,21.94,0.506,10,2,,2,,
612929,1423448355895,,,,,,,,47.810165,-122.341957,21.58,0.507,10,2,,2,,
612949,1423448355914,,0.14,0.45,0.8,63.6,52.0,61.6,47.810165,-122.341957,21.62,0.507,10,2,,2,,
612969,1423448355934,,,,,,,,47.810165,-122.341957,21.61,0.507,10,2,,2,,
612989,1423448355954,,0.14,0.45,0.8,63.4,52.9,61.6,47.810165,-122.341957,21.42,0.507,10,2,,2,,
613009,1423448355974,,,,,,,,47.810165,-122.341957,21.42,0.507,10,2,,2,,
613030,1423448355996,14.52,0.14,0.45,0.78,63.0,54.1,61.0,47.810165,-122.341942,21.3,0.507,10,2,2.6857,2,0.476,2.573
613049,1423448356014,,,,,,,,47.810165,-122.341942,21.72,0.507,10,2,,2,,
613069,1423448356035,,0.15,0.44,0.78,63.0,54.3,61.0,47.810165,-122.341942,21.46,0.507,10,2,,2,,
613089,1423448356055,,,,,,,,47.810165,-122.341942,21.5,0.507,10,2,,2,,
613109,1423448356074,,0.14,0.45,0.8,63.5,54.6,59.1,47.810165,-122.341927,21.36,0.508,10,2,,2,,
613129,1423448356095,,,,,,,,47.810165,-122.341927,21.33,0.508,10,2,,2,,
613149,1423448356115,,0.15,0.45,0.84,63.7,55.0,61.0,47.810165,-122.341927,21.61,0.508,10,2,,2,,
613169,1423448356133,,,,,,,,47.810165,-122.341927,21.78,0.508,10,2,,2,,
613189,1423448356154,,0.16,0.45,0.85,63.4,55.6,58.7,47.810165,-122.341927,21.05,0.508,10,2,,2,,
613209,1423448356175,,,,,,,,47.810165,-122.341911,20.96,0.509,10,2,,2,,
613229,1423448356195,,0.16,0.45,0.84,63.5,54.7,59.3,47.810165,-122.341911,21.31,0.509,10,2,,2,,
613249,1423448356215,,,,,,,,47.810165,-122.341911,20.95,0.509,10,2,,2,,
613269,1423448356235,,0.15,0.45,0.85,63.2,53.7,58.1,47.810165,-122.341911,21.45,0.509,10,2,,2,,
613289,1423448356255,,,,,,,,47.810165,-122.341911,21.39,0.509,10,2,,2,,
613309,1423448356274,,0.14,0.46,0.82,63.0,53.1,57.1,47.810165,-122.341911,21.68,0.509,10,2,,2,,
613329,1423448356295,,,,,,,,47.810165,-122.341904,21.55,0.509,10,2,,2,,
613349,1423448356314,,0.14,0.45,0.81,63.0,53.9,57.7,47.810165,-122.341904,21.64,0.509,10,2,,2,,
613369,1423448356335,,,,,,,,47.810165,-122.341904,21.31,0.509,10,2,,2,,
613389,1423448356355,,0.15,0.45,0.81,63.3,54.9,58.0,47.810165,-122.341904,20.64,0.509,10,2,,2,,
613409,1423448356375,,,,,,,,47.810165,-122.341888,21.41,0.51,10,2,,2,,
613429,1423448356395,,0.14,0.46,0.83,63.4,55.6,58.7,47.810165,-122.341888,20.59,0.51,10,2,,2,,
613449,1423448356415,,,,,,,,47.810165,-122.341888,21.2,0.51,10,2,,2,,
613469,1423448356434,,0.16,0.45,0.84,63.0,56.6,57.7,47.810165,-122.341888,21.3,0.51,10,2,,2,,
613489,1423448356455,,,,,,,,47.810165,-122.341888,20.74,0.51,10,2,,2,,
613509,1423448356474,,0.15,0.46,0.83,63.1,57.1,55.6,47.810165,-122.341888,21.44,0.51,10,2,,2,,
613529,1423448356495,,,,,,,,47.810165,-122.341873,20.16,0.511,10,2,,2,,
613549,1423448356515,,0.15,0.44,0.84,63.1,57.1,57.9,47.810165,-122.341873,21.7,0.511,10,2,,2,,
613569,1423448356535,,,,,,,,47.810165,-122.341873,20.37,0.511,10,2,,2,,
613589,1423448356555,,0.16,0.46,0.86,62.9,58.0,55.9,47.810165,-122.341873,21.04,0.511,10,2,,2,,
613609,1423448356574,,,,,,,,47.810165,-122.341873,21.35,0.511,10,2,,2,,
613629,1423448356594,,0.17,0.46,0.82,62.8,56.6,56.1,47.810165,-122.341866,20.83,0.511,10,2,,2,,
613649,1423448356615,,,,,,,,47.810165,-122.341866,21.09,0.511,10,2,,2,,
613669,1423448356635,,0.16,0.46,0.8,63.0,56.5,58.5,47.810165,-122.341866,20.38,0.511,10,2,,2,,
613689,1423448356653,,,,,,,,47.810165,-122.341866,20.6,0.511,10,2,,2,,
613709,1423448356674,,0.15,0.45,0.82,62.9,55.6,60.4,47.810165,-122.341866,20.94,0.511,10,2,,2,,
613729,1423448356694,,,,,,,,47.810165,-122.34185,20.83,0.512,10,2,,2,,
613749,1423448356714,,0.15,0.47,0.83,63.2,56.0,58.0,47.810165,-122.34185,21.15,0.512,10,2,,2,,
613769,1423448356734,,,,,,,,47.810165,-122.34185,20.59,0.512,10,2,,2,,
613789,1423448356754,,0.16,0.46,0.84,63.7,56.6,60.9,47.810165,-122.34185,21.11,0.512,10,2,,2,,
613809,1423448356774,,,,,,,,47.810165,-122.34185,20.6,0.512,10,2,,2,,
613829,1423448356794,,0.16,0.46,0.84,64.1,56.7,60.0,47.810165,-122.341835,20.62,0.512,10,2,,2,,
613849,1423448356815,,,,,,,,47.810165,-122.341835,20.97,0.512,10,2,,2,,
613869,1423448356835,,0.15,0.45,0.85,63.7,56.2,60.2,47.810165,-122.341835,20.38,0.512,10,2,,2,,
613889,1423448356855,,,,,,,,47.810165,-122.341835,20.75,0.512,10,2,,2,,
613909,1423448356874,,0.15,0.42,0.89,63.4,55.9,58.8,47.810165,-122.341835,20.79,0.512,10,2,,2,,
613929,1423448356895,,,,,,,,47.810165,-122.341827,20.7,0.513,10,2,,2,,
613949,1423448356915,,0.15,0.42,0.89,63.6,57.2,60.1,47.810165,-122.341827,20.98,0.513,10,2,,2,,
613969,1423448356935,,,,,,,,47.810165,-122.341827,20.38,0.513,10,2,,2,,
613989,1423448356955,,0.14,0.43,0.89,64.0,57.1,60.9,47.810165,-122.341827,20.45,0.513,10,2,,2,,
614009,1423448356975,,,,,,,,47.810165,-122.341827,20.45,0.513,10,2,,2,,
614030,1423448356996,14.48,0.16,0.42,0.89,64.7,56.8,62.5,47.810165,-122.341812,20.66,0.513,10,2,2.6857,2,0.476,2.5724
614049,1423448357014,,,,,,,,47.810165,-122.341812,20.84,0.513,10,2,,2,,
614069,1423448357035,,0.16,0.43,0.87,64.6,55.9,61.1,47.810165,-122.341812,20.54,0.513,10,2,,2,,
614089,1423448357055,,,,,,,,47.810165,-122.341812,20.4,0.513,10,2,,2,,
614109,1423448357074,,0.14,0.43,0.84,64.5,53.6,60.3,47.810165,-122.341812,20.93,0.513,10,2,,2,,
614129,1423448357093,,,,,,,,47.810165,-122.341812,20.08,0.513,10,2,,2,,
614149,1423448357115,,0.14,0.43,0.84,64.6,54.4,63.2,47.810165,-122.341797,20.55,0.514,10,2,,2,,
614169,1423448357135,,,,,,,,47.810165,-122.341797,20.52,0.514,10,2,,2,,
614189,1423448357154,,0.14,0.43,0.85,64.2,54.6,61.4,47.810165,-122.341797,20.33,0.514,10,2,,2,,
614209,1423448357173,,,,,,,,47.810165,-122.341797,20.76,0.514,10,2,,2,,
614229,1423448357194,,0.14,0.44,0.82,64.0,52.2,57.3,47.810165,-122.341797,20.23,0.514,10,2,,2,,
614249,1423448357215,,,,,,,,47.810165,-122.341789,20.42,0.514,10,2,,2,,
614269,1423448357235,,0.13,0.44,0.81,63.9,51.4,59.0,47.810165,-122.341789,20.36,0.514,10,2,,2,,
614289,1423448357255,,,,,,,,47.810165,-122.341789,20.33,0.514,10,2,,2,,
614309,1423448357274,,0.14,0.44,0.83,64.0,52.4,60.7,47.810165,-122.341789,20.3,0.514,10,2,,2,,
614329,1423448357294,,,,,,,,47.810165,-122.341789,20.25,0.514,10,2,,2,,
614349,1423448357314,,0.14,0.44,0.82,64.1,53.1,60.1,47.810165,-122.341774,20.47,0.515,10,2,,2,,
614369,1423448357334,,,,,,,,47.810165,-122.341774,20.18,0.515,10,2,,2,,
614389,1423448357354,,0.13,0.45,0.79,63.8,53.8,59.2,47.810165,-122.341774,20.18,0.515,10,2,,2,,
614409,1423448357373,,,,,,,,47.810165,-122.341774,20.25,0.515,10,2,,2,,
614429,1423448357394,,0.14,0.45,0.8,63.7,54.1,60.2,47.810165,-122.341774,20.09,0.515,10,2,,2,,
614449,1423448357414,,,,,,,,47.810165,-122.341759,20.23,0.516,10,2,,2,,
614469,1423448357435,,0.14,0.45,0.82,63.4,53.6,60.5,47.810165,-122.341759,20.03,0.516,10,2,,2,,
614489,1423448357454,,,,,,,,47.810165,-122.341759,20.27,0.516,10,2,,2,,
614509,1423448357474,,0.14,0.45,0.82,62.8,54.5,58.3,47.810165,-122.341759,19.64,0.516,10,2,,2,,
614529,1423448357494,,,,,,,,47.810165,-122.341759,19.73,0.516,10,2,,2,,
614549,1423448357514,,0.14,0.45,0.83,62.3,54.5,58.0,47.810165,-122.341759,19.92,0.516,10,2,,2,,
614569,1423448357534,,,,,,,,47.810165,-122.341751,20.43,0.516,10,2,,2,,
614589,1423448357555,,0.14,0.45,0.83,62.0,53.8,57.0,47.810165,-122.341751,19.98,0.516,10,2,,2,,
614609,1423448357574,,,,,,,,47.810165,-122.341751,19.76,0.516,10,2,,2,,
614629,1423448357595,,0.13,0.44,0.84,61.7,54.9,55.8,47.810165,-122.341751,19.73,0.516,10,2,,2,,
614649,1423448357613,,,,,,,,47.810165,-122.341751,20.18,0.516,10,2,,2,,
614669,1423448357635,,0.13,0.44,0.84,62.0,54.3,56.6,47.810165,-122.341736,20.11,0.517,10,2,,2,,
614689,1423448357655,,,,,,,,47.810165,-122.341736,19.66,0.517,10,2,,2,,
614709,1423448357674,,0.12,0.45,0.81,61.7,53.5,57.0,47.810165,-122.341736,19.56,0.517,10,2,,2,,
614729,1423448357695,,,,,,,,47.810165,-122.341736,19.56,0.517,10,2,,2,,
614749,1423448357715,,0.13,0.44,0.81,61.6,53.5,58.0,47.810165,-122.341736,20.07,0.517,10,2,,2,,
614769,1423448357735,,,,,,,,47.810165,-122.341736,19.76,0.517,10,2,,2,,
614789,1423448357755,,0.12,0.44,0.83,61.0,54.1,59.2,47.810165,-122.341721,19.79,0.518,10,2,,2,,
614809,1423448357774,,,,,,,,47.810165,-122.341721,19.66,0.518,10,2,,2,,
614829,1423448357795,,0.11,0.44,0.82,59.9,53.5,57.1,47.810165,-122.341721,20.11,0.518,10,2,,2,,
614849,1423448357815,,,,,,,,47.810165,-122.341721,19.24,0.518,10,2,,2,,
614869,1423448357835,,0.12,0.46,0.82,58.7,54.4,54.6,47.810165,-122.341721,20.02,0.518,10,2,,2,,
614889,1423448357855,,,,,,,,47.810165,-122.341713,19.64,0.518,10,2,,2,,
614909,1423448357874,,0.11,0.47,0.8,57.0,52.5,55.2,47.810165,-122.341713,19.71,0.518,10,2,,2,,
614929,1423448357895,,,,,,,,47.810165,-122.341713,19.51,0.518,10,2,,2,,
614949,1423448357915,,0.12,0.47,0.77,56.6,52.7,55.7,47.810165,-122.341713,19.49,0.518,10,2,,2,,
614969,1423448357935,,,,,,,,47.810165,-122.341713,19.55,0.518,10,2,,2,,
614989,1423448357955,,0.12,0.47,0.76,56.6,53.4,58.2,47.810165,-122.341713,19.47,0.518,10,2,,2,,
615009,1423448357975,,,,,,,,47.810165,-122.341713,19.47,0.518,10,2,,2,,
615030,1423448357996,14.47,0.12,0.46,0.76,56.4,53.0,60.5,47.810165,-122.341698,19.55,0.519,10,2,2.6857,2,0.476,2.5738
615049,1423448358015,,,,,,,,47.810165,-122.341698,19.34,0.519,10,2,,2,,
615069,1423448358035,,0.13,0.45,0.77,56.4,54.0,61.2,47.810165,-122.341698,19.65,0.519,10,2,,2,,
615089,1423448358053,,,,,,,,47.810165,-122.341698,19.68,0.519,10,2,,2,,
615109,1423448358074,,0.13,0.46,0.78,56.1,54.9,62.1,47.810165,-122.341682,19.7,0.519,10,2,,2,,
615129,1423448358095,,,,,,,,47.810165,-122.341682,19.43,0.519,10,2,,2,,
615149,1423448358115,,0.11,0.47,0.8,55.4,53.9,61.0,47.810165,-122.341682,19.0,0.519,10,2,,2,,
615169,1423448358135,,,,,,,,47.810165,-122.341682,19.32,0.519,10,2,,2,,
615189,1423448358154,,0.1,0.46,0.8,54.7,54.4,60.7,47.810165,-122.341682,19.25,0.519,10,2,,2,,
615209,1423448358174,,,,,,,,47.810165,-122.341682,19.39,0.519,10,2,,2,,
615229,1423448358195,,0.09,0.46,0.8,54.3,53.6,62.8,47.810165,-122.341675,19.14,0.52,10,2,,2,,
615249,1423448358215,,,,,,,,47.810165,-122.341675,19.66,0.52,10,2,,2,,
615269,1423448358235,,0.12,0.45,0.81,54.2,54.8,60.5,47.810165,-122.341675,19.51,0.52,10,2,,2,,
615289,1423448358254,,,,,,,,47.810165,-122.341675,19.3,0.52,10,2,,2,,
615309,1423448358275,,0.12,0.46,0.81,54.1,54.6,59.5,47.810165,-122.341675,19.3,0.52,10,2,,2,,
615329,1423448358295,,,,,,,,47.810165,-122.34166,19.09,0.52,10,2,,2,,
615349,1423448358315,,0.12,0.46,0.82,54.0,53.8,62.4,47.810165,-122.34166,18.98,0.52,10,2,,2,,
615369,1423448358335,,,,,,,,47.810165,-122.34166,19.05,0.52,10,2,,2,,
615389,1423448358354,,0.13,0.46,0.81,53.7,53.8,60.9,47.810165,-122.34166,19.08,0.52,10,2,,2,,
615409,1423448358374,,,,,,,,47.810165,-122.34166,18.86,0.52,10,2,,2,,
615429,1423448358394,,0.13,0.46,0.82,53.5,53.1,60.1,47.810165,-122.34166,18.9,0.52,10,2,,2,,
615449,1423448358415,,,,,,,,47.810165,-122.341644,19.32,0.521,10,2,,2,,
615469,1423448358435,,0.12,0.45,0.84,53.0,53.1,58.0,47.810165,-122.341644,19.04,0.521,10,2,,2,,
615489,1423448358455,,,,,,,,47.810165,-122.341644,18.83,0.521,10,2,,2,,
615509,1423448358475,,0.11,0.43,0.83,53.2,52.4,57.1,47.810165,-122.341644,19.05,0.521,10,2,,2,,
615529,1423448358495,,,,,,,,47.810165,-122.341644,18.84,0.521,10,2,,2,,
615549,1423448358515,,0.1,0.43,0.79,53.2,51.3,56.2,47.810165,-122.341637,18.68,0.522,10,2,,2,,
615569,1423448358535,,,,,,,,47.810165,-122.341637,18.8,0.522,10,2,,2,,
615589,1423448358555,,0.1,0.43,0.76,53.2,50.5,53.2,47.810165,-122.341637,18.46,0.522,10,2,,2,,
615609,1423448358573,,,,,,,,47.810165,-122.341637,18.61,0.522,10,2,,2,,
615629,1423448358595,,0.08,0.42,0.78,53.4,49.7,52.6,47.810165,-122.341637,19.19,0.522,10,2,,2,,
615649,1423448358614,,,,,,,,47.810165,-122.341637,19.17,0.522,10,2,,2,,
615669,1423448358634,,0.07,0.43,0.78,53.1,48.7,54.6,47.810165,-122.341621,18.5,0.522,10,2,,2,,
615689,1423448358654,,,,,,,,47.810165,-122.341621,19.15,0.522,10,2,,2,,
615709,1423448358674,,0.06,0.42,0.77,52.5,48.8,51.1,47.810165,-122.341621,18.29,0.522,10,2,,2,,
615729,1423448358694,,,,,,,,47.810165,-122.341621,18.75,0.522,10,2,,2,,
615749,1423448358715,,0.07,0.41,0.75,52.2,48.2,50.6,47.810165,-122.341621,18.11,0.522,10,2,,2,,
615769,1423448358734,,,,,,,,47.810165,-122.341621,18.69,0.522,10,2,,2,,
615789,1423448358754,,0.06,0.41,0.78,51.1,46.8,48.3,47.810165,-122.341606,18.66,0.523,10,2,,2,,
615809,1423448358774,,,,,,,,47.810165,-122.341606,18.91,0.523,10,2,,2,,
615829,1423448358795,,0.08,0.4,0.78,51.0,45.4,49.1,47.810165,-122.341606,18.74,0.523,10,2,,2,,
615849,1423448358815,,,,,,,,47.810165,-122.341606,18.51,0.523,10,2,,2,,
615869,1423448358835,,0.1,0.4,0.76,50.8,45.3,50.7,47.810165,-122.341606,18.51,0.523,10,2,,2,,
615889,1423448358855,,,,,,,,47.810165,-122.341606,18.55,0.523,10,2,,2,,
615909,1423448358874,,0.13,0.39,0.72,52.1,45.1,55.5,47.810165,-122.341598,18.51,0.523,10,2,,2,,
615929,1423448358894,,,,,,,,47.810165,-122.341598,18.53,0.523,10,2,,2,,
615949,1423448358915,,0.12,0.39,0.73,53.2,45.9,59.8,47.810165,-122.341598,18.82,0.523,10,2,,2,,
615969,1423448358934,,,,,,,,47.810165,-122.341598,18.0,0.523,10,2,,2,,
615989,1423448358955,,0.11,0.4,0.77,54.1,47.0,60.7,47.810165,-122.341598,17.97,0.523,10,2,,2,,
616009,1423448358971,,,,,,,,47.810165,-122.341598,18.18,0.523,10,2,,2,,
616030,1423448358996,14.33,0.09,0.42,0.82,54.7,50.7,59.6,47.810165,-122.341583,18.52,0.524,10,2,2.6857,2,0.476,2.5753
616049,1423448359013,,,,,,,,47.810165,-122.341583,18.01,0.524,10,2,,2,,
616069,1423448359035,,0.09,0.43,0.83,55.0,55.2,57.3,47.810165,-122.341583,18.12,0.524,10,2,,2,,
616089,1423448359054,,,,,,,,47.810165,-122.341583,17.94,0.524,10,2,,2,,
616109,1423448359074,,0.09,0.44,0.81,54.3,58.2,54.9,47.810165,-122.341583,17.81,0.524,10,2,,2,,
616129,1423448359095,,,,,,,,47.810165,-122.341583,17.7,0.524,10,2,,2,,
616149,1423448359114,,0.1,0.44,0.8,54.2,58.0,55.0,47.810165,-122.341568,17.8,0.525,10,2,,2,,
616169,1423448359135,,,,,,,,47.810165,-122.341568,17.83,0.525,10,2,,2,,
616189,1423448359155,,0.11,0.44,0.8,53.5,57.6,52.4,47.810165,-122.341568,17.84,0.525,10,2,,2,,
616209,1423448359174,,,,,,,,47.810165,-122.341568,18.13,0.525,10,2,,2,,
616229,1423448359195,,0.13,0.44,0.81,54.3,57.9,55.4,47.810165,-122.341568,17.96,0.525,10,2,,2,,
616249,1423448359215,,,,,,,,47.810165,-122.341568,17.74,0.525,10,2,,2,,
616269,1423448359235,,0.13,0.45,0.81,54.5,55.8,62.7,47.810165,-122.34156,17.85,0.525,10,2,,2,,
616289,1423448359255,,,,,,,,47.810165,-122.34156,17.56,0.525,10,2,,2,,
616309,1423448359274,,0.16,0.45,0.8,55.2,56.2,64.6,47.810165,-122.34156,17.91,0.525,10,2,,2,,
616329,1423448359294,,,,,,,,47.810165,-122.34156,17.71,0.525,10,2,,2,,
616349,1423448359315,,0.15,0.45,0.8,55.7,53.9,66.2,47.810165,-122.34156,17.77,0.525,10,2,,2,,
616369,1423448359334,,,,,,,,47.810165,-122.34156,18.11,0.525,10,2,,2,,
616389,1423448359355,,0.14,0.44,0.81,56.3,51.8,68.4,47.810165,-122.341545,17.98,0.526,10,2,,2,,
616409,1423448359375,,,,,,,,47.810165,-122.341545,17.76,0.526,10,2,,2,,
616429,1423448359395,,0.12,0.43,0.84,56.6,51.1,68.4,47.810165,-122.341545,17.71,0.526,10,2,,2,,
616449,1423448359415,,,,,,,,47.810165,-122.341545,17.69,0.526,10,2,,2,,
616469,1423448359435,,0.12,0.41,0.85,57.1,50.7,69.3,47.810165,-122.341545,17.59,0.526,10,2,,2,,
616489,1423448359455,,,,,,,,47.810165,-122.341545,17.4,0.526,10,2,,2,,
616509,1423448359474,,0.14,0.41,0.83,57.6,52.7,67.1,47.810165,-122.34153,17.41,0.526,10,2,,2,,
616529,1423448359495,,,,,,,,47.810165,-122.34153,17.61,0.526,10,2,,2,,
616549,1423448359515,,0.1,0.41,0.83,57.6,53.3,64.9,47.810165,-122.34153,17.36,0.526,10,2,,2,,
616569,1423448359533,,,,,,,,47.810165,-122.34153,17.43,0.526,10,2,,2,,
616589,1423448359555,,0.1,0.4,0.87,57.3,54.0,61.5,47.810165,-122.34153,17.48,0.526,10,2,,2,,
616609,1423448359574,,,,,,,,47.810165,-122.34153,17.05,0.526,10,2,,2,,
616629,1423448359595,,0.1,0.4,0.86,57.3,54.8,58.8,47.810165,-122.341515,17.07,0.527,10,2,,2,,
616649,1423448359615,,,,,,,,47.810165,-122.341515,16.93,0.527,10,2,,2,,
616669,1423448359635,,0.11,0.39,0.87,57.7,55.1,57.5,47.810165,-122.341515,17.19,0.527,10,2,,2,,
616689,1423448359655,,,,,,,,47.810165,-122.341515,17.16,0.527,10,2,,2,,
616709,1423448359674,,0.12,0.38,0.9,58.4,57.0,56.6,47.810165,-122.341515,17.24,0.527,10,2,,2,,
616729,1423448359695,,,,,,,,47.810165,-122.341515,17.04,0.527,10,2,,2,,
616749,1423448359715,,0.12,0.37,0.89,59.3,57.1,57.8,47.810165,-122.341507,16.67,0.528,10,2,,2,,
616769,1423448359734,,,,,,,,47.810169,-122.341507,16.48,0.528,10,2,,2,,
616789,1423448359754,,0.12,0.37,0.86,59.4,56.8,57.9,47.810169,-122.341507,16.43,0.528,10,2,,2,,
616809,1423448359775,,,,,,,,47.810169,-122.341507,16.73,0.528,10,2,,2,,
616829,1423448359794,,0.13,0.37,0.86,59.9,57.9,59.5,47.810169,-122.341507,16.27,0.528,10,2,,2,,
616849,1423448359815,,,,,,,,47.810169,-122.341507,16.53,0.528,10,2,,2,,
616869,1423448359834,,0.12,0.36,0.86,60.2,57.3,60.1,47.810169,-122.341507,16.64,0.528,10,2,,2,,
616889,1423448359855,,,,,,,,47.810169,-122.341492,16.36,0.529,10,2,,2,,
616909,1423448359874,,0.12,0.35,0.87,60.2,56.4,59.1,47.810169,-122.341492,16.71,0.529,10,2,,2,,
616929,1423448359895,,,,,,,,47.810169,-122.341492,16.38,0.529,10,2,,2,,
616949,1423448359915,,0.11,0.36,0.88,60.6,56.7,58.7,47.810169,-122.341492,16.63,0.529,10,2,,2,,
616969,1423448359935,,,,,,,,47.810169,-122.341492,16.49,0.529,10,2,,2,,
616989,1423448359954,,0.11,0.35,0.9,60.6,56.6,57.8,47.810169,-122.341492,16.1,0.529,10,2,,2,,
617009,1423448359974,,,,,,,,47.810169,-122.341492,16.1,0.529,10,2,,2,,
617030,1423448359996,14.45,0.12,0.36,0.89,60.1,55.7,56.2,47.810169,-122.341476,16.17,0.529,10,2,2.6857,2,0.476,2.5777
617049,1423448360014,,,,,,,,47.810169,-122.341476,16.09,0.529,10,2,,2,,
617069,1423448360035,,0.13,0.36,0.9,59.9,55.3,57.3,47.810169,-122.341476,15.6,0.529,10,2,,2,,
617089,1423448360053,,,,,,,,47.810169,-122.341476,16.02,0.529,10,2,,2,,
617109,1423448360074,,0.14,0.36,0.9,60.1,54.8,57.4,47.810169,-122.341476,16.08,0.529,10,2,,2,,
617129,1423448360095,,,,,,,,47.810169,-122.341476,15.37,0.529,10,2,,2,,
617149,1423448360115,,0.15,0.36,0.88,60.2,52.5,58.6,47.810169,-122.341469,15.26,0.53,10,2,,2,,
617169,1423448360135,,,,,,,,47.810169,-122.341469,15.74,0.53,10,2,,2,,
617189,1423448360155,,0.15,0.35,0.86,60.5,51.8,59.3,47.810169,-122.341469,15.69,0.53,10,2,,2,,
617209,1423448360173,,,,,,,,47.810169,-122.341469,15.93,0.53,10,2,,2,,
617229,1423448360195,,0.15,0.34,0.86,60.9,51.0,61.0,47.810169,-122.341469,15.33,0.53,10,2,,2,,
617249,1423448360214,,,,,,,,47.810169,-122.341469,15.32,0.53,10,2,,2,,
617269,1423448360234,,0.15,0.34,0.85,60.9,50.6,61.4,47.810169,-122.341469,15.67,0.53,10,2,,2,,
617289,1423448360255,,,,,,,,47.810169,-122.341454,15.25,0.53,10,2,,2,,
617309,1423448360274,,0.14,0.34,0.86,60.9,51.0,59.6,47.810169,-122.341454,15.55,0.53,10,2,,2,,
617329,1423448360295,,,,,,,,47.810169,-122.341454,15.22,0.53,10,2,,2,,
617349,1423448360314,,0.13,0.34,0.88,60.9,52.2,59.5,47.810169,-122.341454,15.06,0.53,10,2,,2,,
617369,1423448360335,,,,,,,,47.810169,-122.341454,15.1,0.53,10,2,,2,,
617389,1423448360355,,0.13,0.34,0.87,60.5,53.1,57.7,47.810169,-122.341454,15.34,0.53,10,2,,2,,
617409,1423448360375,,,,,,,,47.810169,-122.341454,15.06,0.53,10,2,,2,,
617429,1423448360395,,0.13,0.33,0.86,60.3,53.3,55.2,47.810169,-122.341438,14.79,0.531,10,2,,2,,
617449,1423448360415,,,,,,,,47.810169,-122.341438,14.92,0.531,10,2,,2,,
617469,1423448360435,,0.13,0.33,0.85,60.3,52.2,54.0,47.810169,-122.341438,14.6,0.531,10,2,,2,,
617489,1423448360455,,,,,,,,47.810169,-122.341438,14.46,0.531,10,2,,2,,
617509,1423448360474,,0.13,0.33,0.85,60.5,51.8,54.5,47.810169,-122.341438,14.58,0.531,10,2,,2,,
617529,1423448360493,,,,,,,,47.810169,-122.341438,14.72,0.531,10,2,,2,,
617549,1423448360514,,0.13,0.34,0.84,60.6,51.9,54.0,47.810169,-122.341438,14.08,0.531,10,2,,2,,
617569,1423448360535,,,,,,,,47.810169,-122.341431,14.55,0.531,10,2,,2,,
617589,1423448360554,,0.13,0.33,0.85,60.9,52.2,55.2,47.810169,-122.341431,14.01,0.531,10,2,,2,,
617609,1423448360574,,,,,,,,47.810169,-122.341431,14.27,0.531,10,2,,2,,
617629,1423448360595,,0.13,0.33,0.86,61.4,53.8,56.9,47.810169,-122.341431,13.84,0.531,10,2,,2,,
617649,1423448360614,,,,,,,,47.810169,-122.341431,14.18,0.531,10,2,,2,,
617669,1423448360634,,0.12,0.33,0.86,61.6,54.5,57.8,47.810169,-122.341431,14.49,0.531,10,2,,2,,
617689,1423448360655,,,,,,,,47.810169,-122.341431,14.05,0.531,10,2,,2,,
617709,1423448360674,,0.13,0.33,0.88,61.7,56.1,56.2,47.810169,-122.341431,13.83,0.531,10,2,,2,,
617729,1423448360695,,,,,,,,47.810169,-122.341415,13.39,0.532,10,2,,2,,
617749,1423448360715,,0.13,0.33,0.88,62.1,56.1,56.0,47.810169,-122.341415,13.69,0.532,10,2,,2,,
617769,1423448360735,,,,,,,,47.810169,-122.341415,13.39,0.532,10,2,,2,,
617789,1423448360754,,0.12,0.33,0.87,62.0,55.4,55.3,47.810169,-122.341415,13.38,0.532,10,2,,2,,
617809,1423448360775,,,,,,,,47.810169,-122.341415,13.54,0.532,10,2,,2,,
617829,1423448360794,,0.12,0.32,0.88,61.7,55.0,55.5,47.810173,-122.341415,13.56,0.532,10,2,,2,,
617849,1423448360814,,,,,,,,47.810173,-122.341415,13.09,0.532,10,2,,2,,
617869,1423448360834,,0.12,0.32,0.87,61.7,55.9,56.6,47.810173,-122.341415,12.68,0.532,10,2,,2,,
617889,1423448360854,,,,,,,,47.810173,-122.3414,13.47,0.533,10,2,,2,,
617909,1423448360873,,0.13,0.32,0.88,61.6,55.8,55.3,47.810173,-122.3414,13.17,0.533,10,2,,2,,
617929,1423448360895,,,,,,,,47.810173,-122.3414,12.95,0.533,10,2,,2,,
617949,1423448360914,,0.13,0.32,0.89,61.8,56.4,56.4,47.810173,-122.3414,13.21,0.533,10,2,,2,,
617969,1423448360932,,,,,,,,47.810173,-122.3414,12.25,0.533,10,2,,2,,
617989,1423448360954,,0.13,0.31,0.9,62.1,56.8,57.2,47.810173,-122.3414,12.59,0.533,10,2,,2,,
618009,1423448360974,,,,,,,,47.810173,-122.3414,12.59,0.533,10,2,,2,,
618030,1423448360995,14.37,0.14,0.31,0.89,62.5,57.3,58.1,47.810173,-122.3414,12.34,0.533,10,2,2.6857,2,0.476,2.5842
618049,1423448361014,,,,,,,,47.810173,-122.3414,12.19,0.533,10,2,,2,,
618069,1423448361034,,0.13,0.3,0.89,62.5,57.2,57.8,47.810173,-122.341393,12.14,0.533,10,2,,2,,
618089,1423448361055,,,,,,,,47.810173,-122.341393,11.98,0.533,10,2,,2,,
618109,1423448361074,,0.13,0.31,0.89,62.4,57.6,56.6,47.810173,-122.341393,12.64,0.533,10,2,,2,,
618129,1423448361095,,,,,,,,47.810173,-122.341393,11.76,0.533,10,2,,2,,
618149,1423448361114,,0.11,0.3,0.88,62.2,56.5,55.5,47.810173,-122.341393,11.84,0.533,10,2,,2,,
618169,1423448361135,,,,,,,,47.810173,-122.341393,11.95,0.533,10,2,,2,,
618189,1423448361155,,0.12,0.3,0.88,62.3,57.2,56.2,47.810173,-122.341393,11.86,0.533,10,2,,2,,
618209,1423448361175,,,,,,,,47.810173,-122.341393,11.36,0.533,10,2,,2,,
618229,1423448361194,,0.12,0.3,0.88,62.6,57.5,55.8,47.810173,-122.341393,11.98,0.533,10,2,,2,,
618249,1423448361214,,,,,,,,47.810173,-122.341377,12.02,0.534,10,2,,2,,
618269,1423448361235,,0.13,0.3,0.88,63.1,57.2,55.7,47.810173,-122.341377,11.19,0.534,10,2,,2,,
618289,1423448361254,,,,,,,,47.810173,-122.341377,11.58,0.534,10,2,,2,,
618309,1423448361274,,0.13,0.3,0.88,63.5,56.8,56.1,47.810173,-122.341377,11.21,0.534,10,2,,2,,
618329,1423448361295,,,,,,,,47.810173,-122.341377,10.88,0.534,10,2,,2,,
618349,1423448361314,,0.13,0.3,0.89,63.8,56.5,55.5,47.810173,-122.341377,10.9,0.534,10,2,,2,,
618369,1423448361335,,,,,,,,47.810173,-122.341377,11.3,0.534,10,2,,2,,
618389,1423448361354,,0.13,0.32,0.9,64.1,55.4,55.2,47.810173,-122.341377,11.05,0.534,10,2,,2,,
618409,1423448361374,,,,,,,,47.810173,-122.341377,10.31,0.534,10,2,,2,,
618429,1423448361395,,0.14,0.33,0.9,64.5,56.5,55.6,47.810173,-122.341362,10.21,0.535,10,2,,2,,
618449,1423448361415,,,,,,,,47.810173,-122.341362,10.82,0.535,10,2,,2,,
618469,1423448361433,,0.16,0.33,0.89,65.4,56.4,55.4,47.810173,-122.341362,10.47,0.535,10,2,,2,,
618489,1423448361453,,,,,,,,47.810173,-122.341362,10.67,0.535,10,2,,2,,
618509,1423448361474,,0.16,0.34,0.87,66.7,55.1,55.4,47.810173,-122.341362,10.62,0.535,10,2,,2,,
618529,1423448361494,,,,,,,,47.810173,-122.341362,10.34,0.535,10,2,,2,,
618549,1423448361515,,0.17,0.34,0.88,68.0,54.8,56.0,47.810173,-122.341362,9.92,0.535,10,2,,2,,
618569,1423448361534,,,,,,,,47.810173,-122.341362,9.6,0.535,10,2,,2,,
618589,1423448361554,,0.17,0.34,0.87,68.8,54.7,55.5,47.810173,-122.341362,10.16,0.535,10,2,,2,,
618609,1423448361573,,,,,,,,47.810173,-122.341362,9.81,0.535,10,2,,2,,
618629,1423448361594,,0.17,0.33,0.86,69.9,53.3,55.2,47.810173,-122.341362,10.45,0.535,10,2,,2,,
618649,1423448361614,,,,,,,,47.810173,-122.341354,9.59,0.535,10,2,,3,,
618669,1423448361634,,0.18,0.34,0.87,70.8,52.5,55.9,47.810173,-122.341354,9.95,0.535,10,2,,3,,
618689,1423448361654,,,,,,,,47.810173,-122.341354,9.84,0.535,10,2,,3,,
618709,1423448361674,,0.19,0.33,0.88,71.7,52.5,55.8,47.810173,-122.341354,9.83,0.535,10,2,,3,,
618729,1423448361694,,,,,,,,47.810173,-122.341354,10.14,0.535,10,2,,3,,
618749,1423448361714,,0.19,0.32,0.88,72.7,52.4,55.4,47.810173,-122.341354,9.9,0.535,10,2,,3,,
618769,1423448361734,,,,,,,,47.810173,-122.341354,9.8,0.535,10,2,,3,,
618789,1423448361754,,0.19,0.31,0.91,73.6,51.6,55.2,47.810173,-122.341354,9.07,0.535,10,2,,3,,
618809,1423448361774,,,,,,,,47.810173,-122.341354,9.68,0.535,10,2,,3,,
618829,1423448361795,,0.2,0.31,0.91,74.6,53.2,54.2,47.810173,-122.341354,9.09,0.535,10,2,,3,,
618849,1423448361815,,,,,,,,47.810173,-122.341354,9.31,0.535,10,2,,3,,
618869,1423448361834,,0.2,0.32,0.9,75.8,53.8,53.2,47.810173,-122.341339,8.54,0.536,10,2,,3,,
618889,1423448361854,,,,,,,,47.810173,-122.341339,9.44,0.536,10,2,,3,,
618909,1423448361874,,0.2,0.32,0.92,77.1,54.2,53.8,47.810173,-122.341339,8.42,0.536,10,2,,3,,
618929,1423448361892,,,,,,,,47.810173,-122.341339,9.07,0.536,10,2,,3,,
618949,1423448361915,,0.2,0.33,0.94,78.2,54.3,53.1,47.810173,-122.341339,8.98,0.536,10,2,,3,,
618969,1423448361934,,,,,,,,47.810173,-122.341339,8.62,0.536,10,2,,3,,
618989,1423448361954,,0.2,0.33,0.92,79.2,54.0,52.9,47.810173,-122.341339,8.86,0.536,10,2,,3,,
619009,1423448361974,,,,,,,,47.810173,-122.341339,8.86,0.536,10,2,,3,,
619030,1423448361995,14.42,0.2,0.33,0.9,80.4,53.0,53.2,47.810173,-122.341339,8.23,0.536,10,2,2.6857,3,0.7487,2.5842
619049,1423448362014,,,,,,,,47.810173,-122.341339,8.61,0.536,10,2,,3,,
619069,1423448362034,,0.19,0.33,0.88,81.1,51.5,53.4,47.810173,-122.341339,8.95,0.536,10,2,,3,,
619089,1423448362055,,,,,,,,47.810173,-122.341339,8.1,0.536,10,2,,3,,
619109,1423448362074,,0.18,0.33,0.87,81.7,51.3,52.4,47.810173,-122.341339,8.6,0.536,10,2,,3,,
619129,1423448362094,,,,,,,,47.810173,-122.341324,8.24,0.537,10,2,,3,,
619149,1423448362114,,0.2,0.33,0.88,82.8,52.5,51.6,47.810173,-122.341324,8.42,0.537,10,2,,3,,
619169,1423448362135,,,,,,,,47.810173,-122.341324,8.09,0.537,10,2,,3,,
619189,1423448362155,,0.21,0.32,0.86,83.9,52.0,51.6,47.810173,-122.341324,8.03,0.537,10,2,,3,,
619209,1423448362174,,,,,,,,47.810173,-122.341324,7.65,0.537,10,2,,3,,
619229,1423448362194,,0.2,0.33,0.86,84.9,51.2,50.9,47.810173,-122.341324,7.93,0.537,10,2,,3,,
619249,1423448362215,,,,,,,,47.810173,-122.341324,7.84,0.537,10,2,,3,,
619269,1423448362234,,0.2,0.32,0.88,85.8,51.5,51.1,47.810173,-122.341324,7.61,0.537,10,2,,3,,
619289,1423448362254,,,,,,,,47.810173,-122.341324,7.12,0.537,10,2,,3,,
619309,1423448362273,,0.21,0.32,0.87,86.9,52.1,51.2,47.810173,-122.341324,7.76,0.537,10,2,,3,,
619329,1423448362294,,,,,,,,47.810173,-122.341324,7.06,0.537,10,2,,3,,
619349,1423448362314,,0.2,0.33,0.86,87.7,51.6,51.1,47.810173,-122.341324,7.51,0.537,10,2,,3,,
619369,1423448362334,,,,,,,,47.810173,-122.341324,7.97,0.537,10,2,,3,,
619389,1423448362355,,0.21,0.32,0.88,88.5,51.4,51.2,47.810173,-122.341324,6.93,0.537,10,2,,3,,
619409,1423448362374,,,,,,,,47.810173,-122.341316,6.87,0.537,10,2,,3,,
619429,1423448362394,,0.2,0.32,0.88,89.1,51.7,51.6,47.810173,-122.341316,6.9,0.537,10,2,,3,,
619449,1423448362413,,,,,,,,47.810169,-122.341316,7.56,0.537,10,2,,3,,
619469,1423448362435,,0.19,0.32,0.9,89.8,52.6,50.6,47.810169,-122.341316,7.01,0.537,10,2,,3,,
619489,1423448362454,,,,,,,,47.810169,-122.341316,6.5,0.537,10,2,,3,,
619509,1423448362474,,0.18,0.32,0.92,90.2,53.0,50.5,47.810169,-122.341316,6.59,0.537,10,2,,3,,
619529,1423448362495,,,,,,,,47.810169,-122.341316,7.46,0.537,10,2,,3,,
619549,1423448362515,,0.19,0.32,0.93,90.4,54.1,48.7,47.810169,-122.341316,6.59,0.537,10,2,,3,,
619569,1423448362534,,,,,,,,47.810169,-122.341316,6.08,0.537,10,2,,3,,
619589,1423448362555,,0.19,0.32,0.93,90.7,54.7,48.2,47.810169,-122.341316,6.02,0.537,10,2,,3,,
619609,1423448362573,,,,,,,,47.810169,-122.341316,5.95,0.537,10,2,,3,,
619629,1423448362594,,0.19,0.31,0.94,90.8,54.2,49.3,47.810169,-122.341316,6.22,0.537,10,2,,3,,
619649,1423448362614,,,,,,,,47.810169,-122.341316,6.42,0.537,10,2,,3,,
619669,1423448362634,,0.19,0.31,0.92,90.8,54.3,49.1,47.810169,-122.341316,6.67,0.537,10,2,,3,,
619689,1423448362654,,,,,,,,47.810169,-122.341316,6.12,0.537,10,2,,3,,
619709,1423448362674,,0.18,0.31,0.91,90.7,53.1,50.2,47.810169,-122.341316,5.95,0.537,10,2,,3,,
619729,1423448362694,,,,,,,,47.810169,-122.341316,6.18,0.537,10,2,,3,,
619749,1423448362715,,0.18,0.31,0.92,90.5,53.6,49.3,47.810169,-122.341301,6.25,0.538,10,2,,3,,
619769,1423448362735,,,,,,,,47.810169,-122.341301,5.48,0.538,10,2,,3,,
619789,1423448362755,,0.17,0.31,0.91,90.4,53.5,48.8,47.810169,-122.341301,5.44,0.538,10,2,,3,,
619809,1423448362773,,,,,,,,47.810169,-122.341301,5.97,0.538,10,2,,3,,
619829,1423448362795,,0.17,0.31,0.9,90.2,52.7,48.6,47.810169,-122.341301,5.75,0.538,10,2,,3,,
619849,1423448362815,,,,,,,,47.810169,-122.341301,5.05,0.538,10,2,,3,,
619869,1423448362835,,0.17,0.31,0.89,89.9,52.7,48.1,47.810169,-122.341301,4.54,0.538,10,2,,3,,
619889,1423448362853,,,,,,,,47.810169,-122.341301,5.01,0.538,10,2,,3,,
619909,1423448362874,,0.17,0.3,0.89,89.5,51.8,48.0,47.810169,-122.341301,5.01,0.538,10,2,,3,,
619929,1423448362894,,,,,,,,47.810169,-122.341301,5.52,0.538,10,2,,3,,
619949,1423448362915,,0.16,0.3,0.88,89.1,51.6,47.8,47.810169,-122.341301,4.99,0.538,10,2,,3,,
619969,1423448362935,,,,,,,,47.810169,-122.341301,4.49,0.538,10,2,,3,,
619989,1423448362954,,0.16,0.3,0.88,88.7,51.2,47.3,47.810169,-122.341301,4.81,0.538,10,2,,3,,
620009,1423448362974,,,,,,,,47.810169,-122.341301,4.81,0.538,10,2,,3,,
620030,1423448362995,14.34,0.16,0.3,0.88,88.4,51.6,47.0,47.810169,-122.341301,4.22,0.538,10,2,2.6857,3,0.7487,2.6005
620049,1423448363015,,,,,,,,47.810169,-122.341301,4.64,0.538,10,2,,3,,
620069,1423448363035,,0.15,0.3,0.89,88.2,50.9,48.6,47.810169,-122.341301,4.73,0.538,10,2,,3,,
620089,1423448363055,,,,,,,,47.810169,-122.341301,4.85,0.538,10,2,,3,,
620109,1423448363074,,0.15,0.3,0.88,87.9,51.3,48.4,47.810169,-122.341301,4.76,0.538,10,2,,3,,
620129,1423448363095,,,,,,,,47.810169,-122.341301,4.73,0.538,10,2,,3,,
620149,1423448363114,,0.15,0.3,0.88,87.5,51.4,49.5,47.810169,-122.341301,4.04,0.538,10,2,,3,,
620169,1423448363135,,,,,,,,47.810169,-122.341301,3.88,0.538,10,2,,3,,
620189,1423448363155,,0.15,0.3,0.89,87.2,52.3,49.5,47.810169,-122.341301,3.99,0.538,10,2,,3,,
620209,1423448363174,,,,,,,,47.810169,-122.341286,4.67,0.539,10,2,,3,,
620229,1423448363194,,0.15,0.3,0.88,86.6,52.4,49.7,47.810169,-122.341286,4.08,0.539,10,2,,3,,
620249,1423448363215,,,,,,,,47.810169,-122.341286,3.8,0.539,10,2,,3,,
620269,1423448363234,,0.15,0.3,0.88,86.2,52.7,50.1,47.810169,-122.341286,3.32,0.539,10,2,,3,,
620289,1423448363255,,,,,,,,47.810169,-122.341286,3.49,0.539,10,2,,3,,
620309,1423448363274,,0.15,0.3,0.88,85.6,52.5,50.8,47.810169,-122.341286,4.0,0.539,10,2,,3,,
620329,1423448363295,,,,,,,,47.810169,-122.341286,3.94,0.539,10,2,,3,,
620349,1423448363315,,0.14,0.3,0.88,84.9,52.8,50.5,47.810169,-122.341286,3.48,0.539,10,2,,3,,
620369,1423448363334,,,,,,,,47.810169,-122.341286,3.32,0.539,10,2,,3,,
620389,1423448363354,,0.14,0.3,0.88,84.0,52.5,51.2,47.810169,-122.341286,3.59,0.539,10,2,,3,,
620409,1423448363372,,,,,,,,47.810169,-122.341286,3.3,0.539,10,2,,3,,
620429,1423448363394,,0.14,0.31,0.88,83.0,52.2,51.7,47.810165,-122.341286,3.11,0.539,10,2,,3,,
620449,1423448363414,,,,,,,,47.810165,-122.341286,3.16,0.539,10,2,,3,,
620469,1423448363435,,0.14,0.31,0.88,82.3,52.5,51.6,47.810165,-122.341286,3.09,0.539,10,2,,3,,
620489,1423448363455,,,,,,,,47.810165,-122.341286,2.86,0.539,10,2,,3,,
620509,1423448363475,,0.14,0.32,0.87,81.4,52.1,52.4,47.810165,-122.341286,2.83,0.539,10,2,,3,,
620529,1423448363495,,,,,,,,47.810165,-122.341286,2.62,0.539,10,2,,3,,
620549,1423448363514,,0.14,0.32,0.87,80.5,52.4,52.8,47.810165,-122.341286,2.66,0.539,10,2,,3,,
620569,1423448363535,,,,,,,,47.810165,-122.341286,2.89,0.539,10,2,,3,,
620589,1423448363555,,0.14,0.33,0.86,79.8,52.1,53.8,47.810165,-122.341286,2.62,0.539,10,2,,3,,
620609,1423448363574,,,,,,,,47.810165,-122.341286,2.72,0.539,10,2,,3,,
620629,1423448363595,,0.14,0.34,0.87,79.0,52.4,54.2,47.810165,-122.341286,2.33,0.539,10,2,,3,,
620649,1423448363614,,,,,,,,47.810165,-122.341286,2.3,0.539,10,2,,3,,
620669,1423448363635,,0.14,0.35,0.86,78.4,52.3,54.6,47.810165,-122.341286,2.25,0.539,10,2,,3,,
620689,1423448363654,,,,,,,,47.810165,-122.341286,2.23,0.539,10,2,,3,,
620709,1423448363674,,0.14,0.35,0.86,77.9,52.4,55.4,47.810165,-122.341286,2.71,0.539,10,2,,3,,
620729,1423448363695,,,,,,,,47.810165,-122.341286,2.65,0.539,10,2,,3,,
620749,1423448363715,,0.14,0.36,0.86,77.4,52.9,55.4,47.810165,-122.341286,2.06,0.539,10,2,,3,,
620769,1423448363735,,,,,,,,47.810165,-122.341286,2.13,0.539,10,2,,3,,
620789,1423448363754,,0.14,0.37,0.86,76.9,52.5,55.8,47.810165,-122.341286,2.07,0.539,10,2,,3,,
620809,1423448363774,,,,,,,,47.810165,-122.341286,2.37,0.539,10,2,,3,,
620829,1423448363795,,0.14,0.38,0.85,76.2,52.5,56.1,47.810165,-122.341286,2.04,0.539,10,2,,3,,
620849,1423448363813,,,,,,,,47.810165,-122.341286,2.13,0.539,10,2,,3,,
620869,1423448363835,,0.14,0.38,0.85,75.6,52.4,56.1,47.810165,-122.341286,2.01,0.539,10,2,,3,,
620889,1423448363855,,,,,,,,47.810165,-122.341286,2.13,0.539,10,2,,3,,
620909,1423448363874,,0.15,0.38,0.85,75.1,52.4,56.3,47.810165,-122.341286,2.04,0.539,10,2,,3,,
620929,1423448363895,,,,,,,,47.810165,-122.341286,1.79,0.539,10,2,,3,,
620949,1423448363915,,0.14,0.39,0.85,74.5,52.4,56.6,47.810165,-122.341286,1.89,0.539,10,2,,3,,
620969,1423448363934,,,,,,,,47.810165,-122.341286,1.75,0.539,10,2,,3,,
620989,1423448363955,,0.14,0.39,0.85,73.8,52.2,56.9,47.810165,-122.341286,1.74,0.539,10,2,,3,,
621009,1423448363975,,,,,,,,47.810165,-122.341286,1.74,0.539,10,2,,3,,
621030,1423448363996,14.35,0.14,0.39,0.85,73.3,52.7,56.5,47.810165,-122.341286,1.43,0.539,10,2,2.6857,3,0.7487,2.6112
621049,1423448364015,,,,,,,,47.810165,-122.341278,1.62,0.539,10,2,,3,,
621069,1423448364035,,0.14,0.4,0.85,72.8,52.6,56.5,47.810165,-122.341278,1.49,0.539,10,2,,3,,
621089,1423448364052,,,,,,,,47.810165,-122.341278,1.26,0.539,10,2,,3,,
621109,1423448364073,,0.14,0.4,0.85,72.1,53.1,56.1,47.810165,-122.341278,1.33,0.539,10,2,,3,,
621129,1423448364094,,,,,,,,47.810165,-122.341278,1.34,0.539,10,2,,3,,
621149,1423448364115,,0.14,0.41,0.84,71.6,53.0,56.0,47.810165,-122.341278,1.45,0.539,10,2,,3,,
621169,1423448364135,,,,,,,,47.810165,-122.341278,1.72,0.539,10,2,,3,,
621189,1423448364155,,0.14,0.41,0.84,71.1,53.1,55.8,47.810165,-122.341278,1.4,0.539,10,2,,3,,
621209,1423448364174,,,,,,,,47.810165,-122.341278,1.19,0.539,10,2,,3,,
621229,1423448364195,,0.14,0.42,0.84,70.7,53.1,55.8,47.810165,-122.341278,1.38,0.539,10,2,,3,,
621249,1423448364214,,,,,,,,47.810165,-122.341278,1.2,0.539,10,2,,3,,
621269,1423448364235,,0.14,0.42,0.83,70.4,53.4,55.4,47.810165,-122.341278,1.36,0.539,10,2,,3,,
621289,1423448364254,,,,,,,,47.810165,-122.341278,1.46,0.539,10,2,,3,,
621309,1423448364274,,0.14,0.43,0.83,70.0,53.3,55.6,47.810165,-122.341278,1.56,0.539,10,2,,3,,
621329,1423448364295,,,,,,,,47.810165,-122.341278,1.21,0.539,10,2,,3,,
621349,1423448364314,,0.15,0.43,0.83,69.8,53.4,55.8,47.810165,-122.341278,1.33,0.539,10,2,,3,,
621369,1423448364333,,,,,,,,47.810165,-122.341278,1.32,0.539,10,2,,3,,
621389,1423448364355,,0.14,0.44,0.82,69.5,53.4,55.8,47.810165,-122.341278,1.36,0.539,10,2,,3,,
621409,1423448364374,,,,,,,,47.810165,-122.341278,1.18,0.539,10,2,,3,,
621429,1423448364395,,0.15,0.44,0.83,69.3,53.6,55.9,47.810165,-122.341278,1.22,0.539,10,2,,3,,
621449,1423448364415,,,,,,,,47.810165,-122.341278,1.08,0.539,10,2,,3,,
621469,1423448364435,,0.15,0.44,0.83,69.1,53.9,56.0,47.810165,-122.341278,1.12,0.539,10,2,,3,,
621489,1423448364455,,,,,,,,47.810165,-122.341278,1.09,0.539,10,2,,3,,
621509,1423448364474,,0.15,0.44,0.83,68.8,53.8,56.2,47.810165,-122.341278,1.12,0.539,10,2,,3,,
621529,1423448364495,,,,,,,,47.810165,-122.341278,1.03,0.539,10,2,,3,,
621549,1423448364515,,0.15,0.44,0.83,68.6,54.1,56.0,47.810165,-122.341278,1.08,0.539,10,2,,3,,
621569,1423448364535,,,,,,,,47.810165,-122.341278,1.05,0.539,10,2,,3,,
621589,1423448364555,,0.15,0.44,0.83,68.4,54.0,56.3,47.810165,-122.341278,1.1,0.539,10,2,,3,,
621609,1423448364574,,,,,,,,47.810165,-122.341278,0.99,0.539,10,2,,3,,
621629,1423448364595,,0.15,0.44,0.83,68.2,54.2,56.4,47.810165,-122.341278,0.98,0.539,10,2,,3,,
621649,1423448364614,,,,,,,,47.810165,-122.341278,1.07,0.539,10,2,,3,,
621669,1423448364634,,0.15,0.45,0.83,68.1,54.2,56.4,47.810165,-122.341278,1.07,0.539,10,2,,3,,
621689,1423448364654,,,,,,,,47.810165,-122.341278,1.17,0.539,10,2,,3,,
621709,1423448364674,,0.15,0.44,0.83,67.9,54.0,56.9,47.810165,-122.341278,1.2,0.539,10,2,,3,,
621729,1423448364695,,,,,,,,47.810165,-122.341278,1.18,0.539,10,2,,3,,
621749,1423448364715,,0.15,0.45,0.83,67.8,54.4,56.7,47.810165,-122.341278,1.12,0.539,10,2,,3,,
621769,1423448364735,,,,,,,,47.810165,-122.341278,1.05,0.539,10,2,,3,,
621789,1423448364755,,0.15,0.44,0.83,67.6,54.0,56.9,47.810165,-122.341278,0.99,0.539,10,2,,3,,
621809,1423448364773,,,,,,,,47.810165,-122.341278,0.95,0.539,10,2,,3,,
621829,1423448364795,,0.15,0.44,0.83,67.5,54.1,57.0,47.810165,-122.341278,0.93,0.539,10,2,,3,,
621849,1423448364815,,,,,,,,47.810165,-122.341278,0.93,0.539,10,2,,3,,
621869,1423448364835,,0.15,0.45,0.83,67.3,53.8,57.0,47.810165,-122.341278,0.94,0.539,10,2,,3,,
621889,1423448364855,,,,,,,,47.810165,-122.341278,0.0,0.539,10,2,,3,,
621909,1423448364874,,0.15,0.44,0.83,67.1,53.8,57.2,47.810165,-122.341278,0.0,0.539,10,2,,3,,
621929,1423448364895,,,,,,,,47.810165,-122.341278,0.0,0.539,10,2,,3,,
621949,1423448364915,,0.15,0.45,0.82,66.9,53.8,57.1,47.810165,-122.341278,0.0,0.539,10,2,,3,,
621969,1423448364935,,,,,,,,47.810165,-122.341278,0.0,0.539,10,2,,3,,
621989,1423448364955,,0.15,0.45,0.82,66.6,53.6,57.3,47.810165,-122.341278,0.0,0.539,10,2,,3,,
622009,1423448364975,,,,,,,,47.810165,-122.341278,0.0,0.539,10,2,,3,,
622030,1423448364997,14.24,0.15,0.45,0.82,66.5,53.9,57.3,47.810165,-122.341278,0.0,0.539,10,2,2.6857,3,0.7487,2.6257
622049,1423448365016,,,,,,,,47.810165,-122.341278,0.0,0.539,10,2,,3,,
622069,1423448365035,,0.15,0.45,0.82,66.4,53.6,57.7,47.810165,-122.341278,0.0,0.539,10,2,,3,,
622089,1423448365055,,,,,,,,47.810165,-122.341278,0.0,0.539,10,2,,3,,
622109,1423448365075,,0.15,0.45,0.82,66.3,54.1,57.6,47.810165,-122.341278,0.0,0.539,10,2,,3,,
622129,1423448365095,,,,,,,,47.810165,-122.341278,0.0,0.539,10,2,,3,,
622149,1423448365116,,0.15,0.46,0.82,66.1,54.0,57.5,47.810165,-122.341278,0.0,0.539,10,2,,3,,
622169,1423448365136,,,,,,,,47.810165,-122.341278,0.0,0.539,10,2,,3,,
622189,1423448365155,,0.16,0.46,0.82,66.1,54.1,57.7,47.810165,-122.341278,0.0,0.539,10,2,,3,,
622209,1423448365175,,,,,,,,47.810165,-122.341278,0.0,0.539,10,2,,3,,
622229,1423448365196,,0.16,0.47,0.82,66.0,54.3,57.7,47.810165,-122.341278,0.0,0.539,10,2,,3,,
622249,1423448365215,,,,,,,,47.810165,-122.341278,0.0,0.539,10,2,,3,,
622269,1423448365236,,0.16,0.47,0.81,66.0,54.0,57.9,47.810165,-122.341278,0.0,0.539,10,2,,3,,
622289,1423448365256,,,,,,,,47.810165,-122.341278,0.0,0.539,10,2,,3,,
622309,1423448365275,,0.16,0.48,0.82,65.9,54.2,57.9,47.810165,-122.341278,0.0,0.539,10,2,,3,,
622329,1423448365294,,,,,,,,47.810165,-122.341278,0.0,0.539,10,2,,3,,
622349,1423448365315,,0.16,0.48,0.81,66.1,54.0,58.3,47.810165,-122.341278,0.0,0.539,10,2,,3,,
622369,1423448365335,,,,,,,,47.810165,-122.341278,0.0,0.539,10,2,,3,,
622389,1423448365355,,0.16,0.48,0.81,66.2,54.2,57.8,47.810165,-122.341278,0.0,0.539,10,2,,3,,
622409,1423448365375,,,,,,,,47.810165,-122.341278,0.0,0.539,10,2,,3,,
622429,1423448365395,,0.16,0.49,0.81,66.2,54.0,58.2,47.810165,-122.341278,0.0,0.539,10,2,,3,,
622449,1423448365415,,,,,,,,47.810165,-122.341278,0.0,0.539,10,2,,3,,
622469,1423448365435,,0.16,0.49,0.81,66.2,54.0,58.3,47.810165,-122.341278,0.0,0.539,10,2,,3,,
622489,1423448365455,,,,,,,,47.810165,-122.341278,0.0,0.539,10,2,,3,,
622509,1423448365475,,0.16,0.49,0.81,66.2,54.2,57.6,47.810165,-122.341278,0.0,0.539,10,2,,3,,
622529,1423448365496,,,,,,,,47.810165,-122.341278,0.0,0.539,10,2,,3,,
622549,1423448365516,,0.16,0.49,0.81,66.2,53.9,57.7,47.810165,-122.341278,0.0,0.539,9,2,,3,,
622569,1423448365536,,,,,,,,47.810165,-122.341278,0.0,0.539,9,2,,3,,
622589,1423448365556,,0.16,0.49,0.82,66.5,54.2,57.6,47.810165,-122.341278,0.0,0.539,9,2,,3,,
622609,1423448365575,,,,,,,,47.810165,-122.341278,0.0,0.539,9,2,,3,,
622629,1423448365596,,0.16,0.49,0.82,66.6,54.3,57.7,47.810165,-122.341278,0.0,0.539,9,2,,3,,
622649,1423448365616,,,,,,,,47.810165,-122.341278,0.0,0.539,9,2,,3,,
622669,1423448365636,,0.17,0.5,0.82,66.9,54.9,56.8,47.810165,-122.341278,0.0,0.539,9,2,,3,,
622689,1423448365655,,,,,,,,47.810165,-122.341278,0.0,0.539,9,2,,3,,
622709,1423448365675,,0.17,0.51,0.81,67.1,54.7,56.9,47.810165,-122.341278,0.98,0.539,9,2,,3,,
622729,1423448365695,,,,,,,,47.810165,-122.341278,0.95,0.539,9,2,,3,,
622749,1423448365715,,0.18,0.51,0.81,67.3,54.6,57.0,47.810165,-122.341278,1.0,0.539,9,2,,3,,
622769,1423448365734,,,,,,,,47.810165,-122.341278,0.99,0.539,9,2,,3,,
622789,1423448365756,,0.17,0.52,0.78,67.7,53.9,57.2,47.810165,-122.341278,1.12,0.539,9,2,,3,,
622809,1423448365775,,,,,,,,47.810165,-122.341278,1.13,0.539,9,2,,3,,
622829,1423448365796,,0.17,0.54,0.77,67.9,53.5,56.3,47.810165,-122.341278,1.1,0.539,9,2,,3,,
622849,1423448365815,,,,,,,,47.810165,-122.341278,1.14,0.539,9,2,,3,,
622869,1423448365836,,0.18,0.54,0.76,68.4,54.5,54.8,47.810165,-122.341278,1.14,0.539,9,2,,3,,
622889,1423448365855,,,,,,,,47.810165,-122.341278,1.15,0.539,9,2,,3,,
622909,1423448365875,,0.17,0.56,0.73,68.6,52.9,55.5,47.810165,-122.341278,1.16,0.539,9,2,,3,,
622929,1423448365896,,,,,,,,47.810165,-122.341278,1.14,0.539,9,2,,3,,
622949,1423448365915,,0.18,0.56,0.74,69.1,53.7,56.3,47.810165,-122.341278,1.2,0.539,9,2,,3,,
622969,1423448365935,,,,,,,,47.810165,-122.341278,1.36,0.539,9,2,,3,,
622989,1423448365955,,0.18,0.58,0.75,69.8,54.1,55.6,47.810165,-122.341278,1.22,0.539,9,2,,3,,
623009,1423448365975,,,,,,,,47.810165,-122.341278,1.22,0.539,9,2,,3,,
623030,1423448365996,14.48,0.19,0.59,0.75,70.4,53.8,54.7,47.810165,-122.341278,1.9,0.539,9,2,2.6857,3,0.7487,2.6423
623049,1423448366015,,,,,,,,47.810165,-122.341278,1.94,0.539,9,2,,3,,
623069,1423448366035,,0.19,0.6,0.75,71.3,53.8,55.0,47.810165,-122.341278,2.04,0.539,9,2,,3,,
623089,1423448366055,,,,,,,,47.810165,-122.341278,2.15,0.539,9,2,,3,,
623109,1423448366075,,0.2,0.61,0.75,72.3,54.3,53.8,47.810165,-122.341278,2.13,0.539,9,2,,3,,
623129,1423448366095,,,,,,,,47.810165,-122.341278,2.05,0.539,9,2,,3,,
623149,1423448366115,,0.2,0.62,0.75,73.4,54.2,53.5,47.810165,-122.341278,2.34,0.539,9,2,,3,,
623169,1423448366135,,,,,,,,47.810165,-122.341278,2.22,0.539,9,2,,3,,
623189,1423448366155,,0.21,0.63,0.74,74.7,54.0,52.7,47.810165,-122.341278,2.42,0.539,9,2,,3,,
623209,1423448366175,,,,,,,,47.810165,-122.341278,2.59,0.539,9,2,,3,,
623229,1423448366195,,0.21,0.64,0.75,76.1,53.8,52.6,47.810165,-122.341278,2.51,0.539,9,2,,3,,
623249,1423448366215,,,,,,,,47.810165,-122.341278,2.83,0.539,9,2,,3,,
623269,1423448366235,,0.22,0.65,0.75,77.6,53.6,51.3,47.810165,-122.341278,2.87,0.539,9,2,,3,,
623289,1423448366254,,,,,,,,47.810165,-122.341278,2.91,0.539,9,2,,3,,
623309,1423448366275,,0.22,0.65,0.73,79.0,52.7,49.4,47.810165,-122.341278,2.95,0.539,9,2,,3,,
623329,1423448366295,,,,,,,,47.810165,-122.341278,2.91,0.539,9,2,,3,,
623349,1423448366315,,0.23,0.66,0.7,80.5,51.3,48.9,47.810165,-122.341278,3.41,0.539,10,2,,3,,
623369,1423448366335,,,,,,,,47.810165,-122.341278,3.73,0.539,10,2,,3,,
623389,1423448366355,,0.24,0.66,0.68,82.3,50.8,49.1,47.810165,-122.341278,3.43,0.539,10,2,,3,,
623409,1423448366374,,,,,,,,47.810165,-122.341278,3.43,0.539,10,2,,3,,
623429,1423448366394,,0.24,0.66,0.66,84.5,49.7,48.7,47.810165,-122.341278,3.44,0.539,10,2,,3,,
623449,1423448366415,,,,,,,,47.810165,-122.341278,3.48,0.539,10,2,,3,,
623469,1423448366435,,0.25,0.67,0.64,87.2,48.4,49.0,47.810165,-122.341278,3.77,0.539,10,2,,3,,
623489,1423448366454,,,,,,,,47.810165,-122.341278,4.23,0.539,10,2,,3,,
623509,1423448366473,,0.25,0.67,0.64,90.1,47.7,49.2,47.810165,-122.341278,4.14,0.539,10,2,,3,,
623529,1423448366494,,,,,,,,47.810165,-122.341278,4.15,0.539,10,2,,3,,
623549,1423448366515,,0.26,0.67,0.66,93.1,48.4,48.8,47.810165,-122.341278,4.1,0.539,10,2,,3,,
623569,1423448366534,,,,,,,,47.810165,-122.341278,4.01,0.539,10,2,,3,,
623589,1423448366554,,0.26,0.67,0.7,96.2,49.5,49.1,47.810165,-122.341263,3.94,0.54,10,2,,3,,
623609,1423448366573,,,,,,,,47.810165,-122.341263,4.16,0.54,10,2,,3,,
623629,1423448366593,,0.27,0.66,0.73,99.5,50.8,49.9,47.810165,-122.341263,4.49,0.54,10,2,,3,,
623649,1423448366614,,,,,,,,47.810165,-122.341263,4.66,0.54,10,2,,3,,
623669,1423448366635,,0.27,0.65,0.71,102.7,50.8,50.7,47.810165,-122.341263,4.83,0.54,10,2,,3,,
623689,1423448366655,,,,,,,,47.810162,-122.341263,4.44,0.54,10,2,,3,,
623709,1423448366674,,0.27,0.65,0.69,105.5,49.7,49.3,47.810162,-122.341263,5.23,0.54,10,2,,3,,
623729,1423448366692,,,,,,,,47.810162,-122.341263,5.33,0.54,10,2,,3,,
623749,1423448366714,,0.27,0.64,0.67,107.8,47.8,47.0,47.810162,-122.341263,5.5,0.54,10,2,,3,,
623769,1423448366734,,,,,,,,47.810162,-122.341263,5.37,0.54,10,2,,3,,
623789,1423448366754,,0.27,0.63,0.68,110.1,46.8,45.6,47.810162,-122.341263,5.08,0.54,10,2,,3,,
623809,1423448366773,,,,,,,,47.810162,-122.341263,5.51,0.54,10,2,,3,,
623829,1423448366794,,0.28,0.63,0.68,112.4,46.6,46.5,47.810162,-122.341263,5.38,0.54,10,2,,3,,
623849,1423448366814,,,,,,,,47.810162,-122.341263,5.41,0.54,10,2,,3,,
623869,1423448366834,,0.29,0.63,0.69,114.9,48.4,46.7,47.810162,-122.341263,5.71,0.54,10,2,,3,,
623889,1423448366854,,,,,,,,47.810162,-122.341263,5.63,0.54,10,2,,3,,
623909,1423448366873,,0.3,0.63,0.71,117.8,50.6,47.6,47.810162,-122.341263,5.46,0.54,10,2,,3,,
623929,1423448366893,,,,,,,,47.810162,-122.341263,6.0,0.54,10,2,,3,,
623949,1423448366914,,0.31,0.63,0.74,120.8,53.9,46.0,47.810162,-122.341263,5.57,0.54,10,2,,3,,
623969,1423448366933,,,,,,,,47.810158,-122.341263,5.15,0.54,10,2,,3,,
623989,1423448366953,,0.33,0.62,0.73,124.0,55.6,42.3,47.810158,-122.341263,5.96,0.54,10,2,,3,,
624009,1423448366973,,,,,,,,47.810158,-122.341263,5.96,0.54,10,2,,3,,
624030,1423448366995,14.48,0.31,0.62,0.73,127.6,55.8,40.7,47.810158,-122.341263,6.0,0.54,10,2,2.6857,3,0.7487,2.6511
624049,1423448367014,,,,,,,,47.810158,-122.341248,5.93,0.541,10,2,,3,,
624069,1423448367035,,0.3,0.62,0.75,130.3,55.0,38.9,47.810158,-122.341248,5.7,0.541,10,2,,3,,
624089,1423448367053,,,,,,,,47.810158,-122.341248,5.61,0.541,10,2,,3,,
624109,1423448367074,,0.29,0.61,0.72,132.6,55.5,35.0,47.810158,-122.341248,6.33,0.541,10,2,,3,,
624129,1423448367094,,,,,,,,47.810158,-122.341248,6.28,0.541,10,2,,3,,
624149,1423448367115,,0.3,0.6,0.72,135.0,55.0,35.1,47.810158,-122.341248,6.73,0.541,10,2,,3,,
624169,1423448367135,,,,,,,,47.810158,-122.341248,6.63,0.541,10,2,,3,,
624189,1423448367154,,0.29,0.61,0.71,137.3,55.5,33.2,47.810154,-122.341248,6.69,0.541,10,2,,3,,
624209,1423448367174,,,,,,,,47.810154,-122.341248,6.74,0.541,10,2,,3,,
624229,1423448367194,,0.31,0.6,0.72,139.7,55.7,30.6,47.810154,-122.341248,6.43,0.541,10,2,,3,,
624249,1423448367212,,,,,,,,47.810154,-122.341248,6.96,0.541,10,2,,3,,
624269,1423448367234,,0.32,0.6,0.71,141.5,57.7,28.5,47.810154,-122.341248,6.47,0.541,10,2,,3,,
624289,1423448367253,,,,,,,,47.810154,-122.341248,7.14,0.541,10,2,,3,,
624309,1423448367273,,0.32,0.6,0.72,143.5,58.8,27.0,47.810154,-122.341248,6.98,0.541,10,2,,3,,
624329,1423448367294,,,,,,,,47.810154,-122.341248,6.74,0.541,10,2,,3,,
624349,1423448367314,,0.31,0.59,0.72,145.5,58.6,27.2,47.81015,-122.341248,7.13,0.542,10,2,,3,,
624369,1423448367334,,,,,,,,47.81015,-122.341248,8.07,0.542,10,2,,3,,
624389,1423448367354,,0.33,0.58,0.74,147.7,59.8,24.1,47.81015,-122.341248,7.7,0.542,10,2,,3,,
624409,1423448367373,,,,,,,,47.81015,-122.341248,7.63,0.542,10,2,,3,,
624429,1423448367394,,0.32,0.58,0.73,149.5,58.6,22.8,47.81015,-122.341248,7.45,0.542,10,2,,3,,
624449,1423448367414,,,,,,,,47.81015,-122.341248,7.08,0.542,10,2,,3,,
624469,1423448367434,,0.32,0.59,0.75,151.0,58.1,21.2,47.81015,-122.341248,8.1,0.542,10,2,,3,,
624489,1423448367453,,,,,,,,47.810146,-122.34124,7.56,0.542,10,2,,3,,
624509,1423448367473,,0.32,0.59,0.74,152.6,58.3,20.9,47.810146,-122.34124,8.49,0.542,10,2,,3,,
624529,1423448367494,,,,,,,,47.810146,-122.34124,8.56,0.542,10,2,,3,,
624549,1423448367514,,0.32,0.59,0.72,154.2,58.7,21.7,47.810146,-122.34124,7.82,0.542,10,2,,3,,
624569,1423448367534,,,,,,,,47.810146,-122.34124,7.0,0.542,10,2,,3,,
624589,1423448367554,,0.31,0.59,0.72,155.9,59.7,21.1,47.810146,-122.34124,7.93,0.542,10,2,,3,,
624609,1423448367573,,,,,,,,47.810146,-122.34124,8.74,0.542,10,2,,3,,
624629,1423448367594,,0.31,0.59,0.74,158.1,60.9,17.6,47.810146,-122.34124,8.01,0.542,10,2,,3,,
